# lines.yaml

lines:
  - name: "身延線"
    # 身延線の駅を駅順に定義
    stations:
      - { name: "富士",       lat: 35.15161081187748, lon: 138.6512240252445 }
      - { name: "富士宮",       lat: 35.2213670026145, lon: 138.6152458019639 }
      - { name: "西富士宮",       lat: 35.22572303638545, lon: 138.60263973874035 }
      - { name: "身延",       lat: 35.3614858249636,  lon: 138.45303135011926 }
      - { name: "鰍沢口",       lat: 35.54153598264933, lon: 138.4707196829332 }
      - { name: "南甲府",     lat: 35.643682987758886, lon: 138.5773318829377 }
      - { name: "甲府",     lat: 35.66719109348096, lon: 138.56902050595352 }

      

  - name: "東海道線"
    # 東海道線の駅を駅順に定義
    stations:
      - { name: "熱海",       lat: 35.104000165471454,lon: 139.07786263873493 }
      - { name: "三島",       lat: 35.126448546978644,lon: 138.91112609640757 }
      - { name: "沼津",       lat: 35.1027898127985, lon: 138.85978986757067 }
      - { name: "富士",       lat: 35.15161081187748, lon: 138.6512240252445 }
      - { name: "静岡",       lat: 34.97160583284677, lon: 138.38906892693134 }
      - { name: "浜松",       lat: 34.70415813020319, lon: 137.73448108080623 }

  - name: "御殿場線"
    # 御殿場線の駅を駅順に定義
    stations:
      - { name: "沼津",       lat: 35.1027898127985, lon: 138.85978986757067 }
      - { name: "裾野",       lat: 35.17189146368202, lon: 138.9094445387379 }
      - { name: "御殿場",       lat: 35.30029087163007, lon: 138.93404065832573 }
      - { name: "松田",       lat: 35.37171684751299, lon: 139.14155818127995 }
      - { name: "国府津",     lat: 35.28147320878644, lon: 139.2149465241749 }
